{
   "Id":"85954303-f984-7743-7cfe-e40a67a77fff",
   "Title":"South Eastia - European adventure",
   "Stops":[
      {
         "Name":"Seattle, WA, United States",
         "Notes":"Started in Seattle",
         "Location":{
            "lat":47.6062095,
            "lng":-122.3320708
         },
         "PlaceId":"ChIJVTPokywQkFQRmtVEaUZlJRA"
      },
      {
         "Name":"Kansas City, MO, United States",
         "Notes":"Drove to KC!",
         "Location":{
            "lat":39.0997265,
            "lng":-94.57856670000001
         },
         "PlaceId":"ChIJl5npr173wIcRolGqauYlhVU"
      },
      {
         "Name":"Chicago, IL, United States",
         "Notes":"Train to the windy City!",
         "Location":{
            "lat":41.8781136,
            "lng":-87.62979819999998
         },
         "PlaceId":"ChIJ7cv00DwsDogRAMDACa2m4K8"
      },
      {
         "Name":"Copenhagen, Denmark",
         "Notes":"Flew to Cph for a few days",
         "Location":{
            "lat":55.6760968,
            "lng":12.568337100000008
         },
         "PlaceId":"ChIJIz2AXDxTUkYRuGeU5t1-3QQ"
      },
      {
         "Name":"Malmö, Sweden",
         "Notes":"Day trip to Malmo!",
         "Location":{
            "lat":55.604981,
            "lng":13.003822000000014
         },
         "PlaceId":"ChIJ_5HEdKUFU0YR5YhIvd8FqdM"
      },
      {
         "Name":"Bucharest, Romania",
         "Notes":"Flew to Bucharest",
         "Location":{
            "lat":44.4267674,
            "lng":26.102538399999958
         },
         "PlaceId":"ChIJT608vzr5sUARKKacfOMyBqw"
      },
      {
         "Name":"Focșani, Vrancea County, Romania",
         "Notes":"Spent time with parents",
         "Location":{
            "lat":45.69647450000001,
            "lng":27.184042999999974
         },
         "PlaceId":"ChIJo5Yhh6MYtEARMtKEEvmfigc"
      },
      {
         "Name":"Istanbul, İstanbul, Turkey",
         "Notes":"A week in Istanbul!",
         "Location":{
            "lat":41.0082376,
            "lng":28.97835889999999
         },
         "PlaceId":"ChIJawhoAASnyhQR0LABvJj-zOE"
      },
      {
         "Name":"Kuala Lumpur Federal Territory of Kuala Lumpur Malaysia",
         "Notes":"Landed in SE Asia!",
         "Location":{
            "lat":3.139003,
            "lng":101.68685499999992
         },
         "PlaceId":"ChIJ5-rvAcdJzDERfSgcL1uO2fQ"
      },
      {
         "Name":"Siem Reap, Cambodia",
         "Notes":"2 weeks exploring the temples of Angkor!",
         "Location":{
            "lat":13.3670968,
            "lng":103.84481340000002
         },
         "PlaceId":"ChIJeaiRjJoWEDER-rvlPvmqQKk"
      },
      {
         "Name":"Battambang, Cambodia",
         "Notes":"A couple of days exploring Battambang",
         "Location":{
            "lat":13.09573,
            "lng":103.20220549999999
         },
         "PlaceId":"ChIJ5dfd6pZJBTERk-PpXJXOVZw"
      },
      {
         "Name":"Phnom Penh, Cambodia",
         "Notes":"\"The pearl of Asia\" as Lonely Planet calls it",
         "Location":{
            "lat":11.5448729,
            "lng":104.89216680000004
         },
         "PlaceId":"ChIJ42tqxz1RCTERuyW1WugOAZw"
      },
      {
         "Name":"Sihanoukville, Cambodia",
         "Notes":"Beach time!",
         "Location":{
            "lat":10.7581899,
            "lng":103.8216261
         },
         "PlaceId":"ChIJgVIpXRHhBzERWV-LJqT_nmk"
      }
   ]
}
